{"type":"FeatureCollection","features":[{"type":"Feature","id":1,"geometry":{"type":"Point","coordinates":[-87.643844057086994,41.899147257013205]},"properties":{"FID":1,"OBJECTID":1,"Name":"Fullerton Avenue","Address":"Larabee and Cleveland","ID":11,"WardNumber":"XV"}},{"type":"Feature","id":2,"geometry":{"type":"Point","coordinates":[-87.661745455896849,41.892994170605995]},"properties":{"FID":2,"OBJECTID":2,"Name":"Holland","Address":"Erie and Noble","ID":21,"WardNumber":"XII"}},{"type":"Feature","id":3,"geometry":{"type":"Point","coordinates":[-87.67406080687654,41.87792232965446]},"properties":{"FID":3,"OBJECTID":3,"Name":"Eighth","Address":"Washington and Damen","ID":5,"WardNumber":"IX"}},{"type":"Feature","id":4,"geometry":{"type":"Point","coordinates":[-87.655888216563866,41.884681488768763]},"properties":{"FID":4,"OBJECTID":4,"Name":"Third","Address":"Washington and Carpenter","ID":3,"WardNumber":"X"}},{"type":"Feature","id":5,"geometry":{"type":"Point","coordinates":[-87.655126789257707,41.880033078815472]},"properties":{"FID":5,"OBJECTID":5,"Name":"Seventh I","Address":"Jackson and Peoria","ID":4,"WardNumber":"X"}},{"type":"Feature","id":6,"geometry":{"type":"Point","coordinates":[-87.657058349476557,41.876208187951256]},"properties":{"FID":6,"OBJECTID":6,"Name":"South Side Scotch","Address":"Adams and Sangamon","ID":26,"WardNumber":"X"}},{"type":"Feature","id":7,"geometry":{"type":"Point","coordinates":[-87.650302629569467,41.876370115815]},"properties":{"FID":7,"OBJECTID":7,"Name":"Jefferson Park","Address":"Peoria and West Jackson","ID":13,"WardNumber":"X"}},{"type":"Feature","id":8,"geometry":{"type":"Point","coordinates":[-87.625099134835452,41.883486187025959]},"properties":{"FID":8,"OBJECTID":8,"Name":"Second","Address":"Washington and Wabash","ID":2,"WardNumber":"I"}},{"type":"Feature","id":9,"geometry":{"type":"Point","coordinates":[-87.623536200988383,41.878226895223463]},"properties":{"FID":9,"OBJECTID":9,"Name":"First","Address":"426 South Wabash","ID":1,"WardNumber":"II"}},{"type":"Feature","id":10,"geometry":{"type":"Point","coordinates":[-87.623163529502889,41.863081366542822]},"properties":{"FID":10,"OBJECTID":10,"Name":"Olivet","Address":"Wabash and 14th","ID":23,"WardNumber":"III"}},{"type":"Feature","id":11,"geometry":{"type":"Point","coordinates":[-87.623987043869917,41.837443838080262]},"properties":{"FID":11,"OBJECTID":11,"Name":"Thirty-First Street","Address":"Wabash and 31st","ID":27,"WardNumber":"IV"}},{"type":"Feature","id":12,"geometry":{"type":"Point","coordinates":[-87.60711084378481,41.825627538989679]},"properties":{"FID":12,"OBJECTID":12,"Name":"Ninth I","Address":"3836 Ellis","ID":6,"WardNumber":"IV"}},{"type":"Feature","id":13,"geometry":{"type":"Point","coordinates":[-87.589248740878745,41.799396025969209]},"properties":{"FID":13,"OBJECTID":13,"Name":"Hyde Park","Address":"53rd and Lake","ID":12,"WardNumber":"Not Classified"}},{"type":"Feature","id":14,"geometry":{"type":"Point","coordinates":[-87.620758923641915,41.779504517589992]},"properties":{"FID":14,"OBJECTID":14,"Name":"Englewood","Address":"63rd and Yale","ID":9,"WardNumber":"Not Classified"}}]}